[
  {
    "name": "גן סיפור הזיקית",
    "address": "השומרון",
    "location": [32.02768591376181, 34.775837698884516],
    "city": "חולון"
  },
  {
    "name": "הגאונים",
    "address": "הגאונים",
    "location": [32.002929707061426, 34.761036022061816],
    "city": "חולון"
  },
  {
    "name": "לוי אשכול",
    "address": "לוי אשכול",
    "location": [32.03108489334898, 34.77416201310335],
    "city": "חולון"
  },
  {
    "name": "מטולה",
    "address": "מטולה",
    "location": [32.00307306252223, 34.787016777452685],
    "city": "חולון"
  },
  {
    "name": "חורשת היובל",
    "address": "משה דיין",
    "location": [32.000848, 34.764711],
    "city": "חולון"
  },
  {
    "name": "סיפור כספיון הדג הקטן",
    "address": "יוחאי בן נון 7",
    "location": [32.01277931367215, 34.783903705478146],
    "city": "חולון"
  },
  {
    "name": "פארק הפילבוקס",
    "address": "המצודה 1",
    "location": [32.03450913095439, 34.76786773817358],
    "city": "חולון"
  },
  {
    "name": "קרית עבודה",
    "address": "דוד רמז",
    "location": [32.009642, 34.767002],
    "city": "חולון"
  },
  {
    "name": "סיפור העץ הנדיב",
    "address": "אליעזר הופיין 46",
    "location": [32.01343585339947, 34.77051167108116],
    "city": "חולון"
  },
  {
    "name": "חורשת נווה ארזים",
    "address": "פרופסור משה שור",
    "location": [32.018882, 34.795232],
    "city": "חולון"
  },
  {
    "name": "הבנים",
    "address": "בן גוריון / שייקה דן",
    "location": [31.996286, 34.767651],
    "city": "חולון"
  },
  {
    "name": "אלישבע",
    "address": "מקס נורדאו",
    "location": [31.810008565892137, 34.642968061587325],
    "city": "אשדוד"
  },
  {
    "name": "אקופארק",
    "address": "שניר",
    "location": [32.42984481605172, 34.93344979258566],
    "city": "חדרה"
  },
  {
    "name": "שכונת ניסן",
    "address": "פיינברג / חנה סנש",
    "location": [32.42768319615098, 34.92202900711387],
    "city": "חדרה"
  },
  {
    "name": "הורדים",
    "address": "מנחם בגין / החשמונאים",
    "location": [31.879460386789574, 34.99794528857361],
    "city": "מודיעין-מכבים-רעות"
  },
  {
    "name": "התפוח",
    "address": "יצחק רבין / החשמונאים",
    "location": [31.893359436298645, 35.00113427116377],
    "city": "מודיעין-מכבים-רעות"
  },
  {
    "name": "חורשת האומות",
    "address": "עמק איילון 10",
    "location": [31.90570113734803, 35.01834983513688],
    "city": "מודיעין-מכבים-רעות"
  },
  {
    "name": "יער יתיר",
    "address": "יער יתיר 19",
    "location": [31.89683061923533, 34.98697927116377],
    "city": "מודיעין-מכבים-רעות"
  },
  {
    "name": "מוטה גור",
    "address": "מוטה גור 12",
    "location": [31.910509874955608, 34.996388048615884],
    "city": "מודיעין-מכבים-רעות"
  },
  {
    "name": "מכבים",
    "address": "שדרת המכבים",
    "location": [31.888755425827586, 35.033196628320006],
    "city": "מודיעין-מכבים-רעות"
  },
  {
    "name": "הלוחמים",
    "address": "יוספטל",
    "location": [31.807517144833287, 34.65271484098955],
    "city": "אשדוד"
  },
  {
    "name": "ניסן",
    "address": "ניסן 115",
    "location": [31.91914868990889, 35.008068719991],
    "city": "מודיעין-מכבים-רעות"
  },
  {
    "name": "עמק האלה",
    "address": "עמק האלה 26",
    "location": [31.91258753192258, 35.01152607116378],
    "city": "מודיעין-מכבים-רעות"
  },
  {
    "name": "עמק החולה",
    "address": "עמק החולה 3",
    "location": [31.89332193583761, 35.02421065551398],
    "city": "מודיעין-מכבים-רעות"
  },
  {
    "name": "עמק זבולון",
    "address": "עמק זבולון 4",
    "location": [31.902824695507917, 35.001095710511734],
    "city": "מודיעין-מכבים-רעות"
  },
  {
    "name": "פארק ענבה",
    "address": "עמק זבולון 3",
    "location": [31.900029743338795, 35.00216836715172],
    "city": "מודיעין-מכבים-רעות"
  },
  {
    "name": "רעות",
    "address": "משעול עוז צמח",
    "location": [31.889555999296462, 35.01274293460832],
    "city": "מודיעין-מכבים-רעות"
  },
  {
    "name": "יצחק רבין",
    "address": "שדרות עופר / שדרות יצחק רבין",
    "location": [31.655788409557868, 34.571642244319456],
    "city": "אשקלון"
  },
  {
    "name": "מסדר הבונים החופשיים",
    "address": "שדרות דרום אפריקה 18",
    "location": [31.67765980766588, 34.57118429013816],
    "city": "אשקלון"
  },
  {
    "name": "פארק אבנר גרעין",
    "address": "יהושפט המלך",
    "location": [31.77666219719504, 34.64532558807193],
    "city": "אשדוד"
  },
  {
    "name": "גולדה",
    "address": "הרי גולן / הר חרמון",
    "location": [31.78420907102185, 34.631704297140395],
    "city": "אשדוד"
  },
  {
    "name": "מנחם בגין",
    "address": "מנחם בגין 26",
    "location": [31.88156577276401, 35.01273674788829],
    "city": "מודיעין-מכבים-רעות"
  },
  {
    "name": "אברהם קרן",
    "address": "אברהם קרן 19",
    "location": [32.171072, 34.911743],
    "city": "כפר סבא"
  },
  {
    "name": "המפלס",
    "address": "המפלס 12",
    "location": [32.177639, 34.916681],
    "city": "כפר סבא"
  },
  {
    "name": "התחייה",
    "address": "התחייה 17",
    "location": [32.173895, 34.904054],
    "city": "כפר סבא"
  },
  {
    "name": "חורון",
    "address": "חורון פינת המוביל",
    "location": [32.179227, 34.931266],
    "city": "כפר סבא"
  },
  {
    "name": "כלנית",
    "address": "כלנית 22",
    "location": [32.173879, 34.893896],
    "city": "כפר סבא"
  },
  {
    "name": "עמק חרוד",
    "address": "עמק חרוד 6",
    "location": [32.178951, 34.935865],
    "city": "כפר סבא"
  },
  {
    "name": "דוד זהבי",
    "address": "דוד זהבי",
    "location": [32.185306, 34.89289],
    "city": "כפר סבא"
  },
  {
    "name": "פארק כפר סבא - שער וייצמן",
    "address": "וייצמן",
    "location": [32.172132, 34.922705],
    "city": "כפר סבא"
  },
  {
    "name": "קדושי קהיר",
    "address": "משה סנה 17",
    "location": [32.185068, 34.896598],
    "city": "כפר סבא"
  },
  {
    "name": "שיבת ציון",
    "address": "שיבת ציון 13",
    "location": [32.180032, 34.89406],
    "city": "כפר סבא"
  },
  {
    "name": "א.ד. גורדון",
    "address": "א.ד. גורדון 35",
    "location": [32.156114, 34.844151],
    "city": "הרצליה"
  },
  {
    "name": "גינה ע\"ש גילי שקד",
    "address": "אלקלעי פינת דבורה עומר",
    "location": [32.17432450826921, 34.83507142407689],
    "city": "הרצליה"
  },
  {
    "name": "גליל ים",
    "address": "הקרן",
    "location": [32.15937941732722, 34.82007202528816],
    "city": "הרצליה"
  },
  {
    "name": "גן תמיר",
    "address": "וינגייט 2",
    "location": [32.18275, 34.807468],
    "city": "הרצליה"
  },
  {
    "name": "דפנה אילת (גן רש\"ל)",
    "address": "האילנות",
    "location": [32.17797508332032, 34.848555777355685],
    "city": "הרצליה"
  },
  {
    "name": "הבנים",
    "address": "הבנים 48",
    "location": [32.163159, 34.850782],
    "city": "הרצליה"
  },
  {
    "name": "פארק כפר סבא - שער האצטדיון",
    "address": "ג'ו עמר",
    "location": [32.182158, 34.925857],
    "city": "כפר סבא"
  },
  {
    "name": "הרצליה",
    "address": "יוסף נבו",
    "location": [32.167977, 34.824042],
    "city": "הרצליה"
  },
  {
    "name": "כצנלסון",
    "address": "בורוכוב 49",
    "location": [32.17251, 34.856256],
    "city": "הרצליה"
  },
  {
    "name": "פינסקר",
    "address": "פינסקר פינת עזרא הסופר",
    "location": [32.168112, 34.831963],
    "city": "הרצליה"
  },
  {
    "name": "פארק הכלבים",
    "address": "השקד 43",
    "location": [32.988789, 35.083137],
    "city": "נהריה"
  },
  {
    "name": "אח\"י אילת",
    "address": "קפלן 10",
    "location": [32.631287, 35.32536],
    "city": "עפולה"
  },
  {
    "name": "פארק הרכבת",
    "address": "אורנים 19",
    "location": [32.612948, 35.285021],
    "city": "עפולה"
  },
  {
    "name": "פארק עירוני",
    "address": "ספיר",
    "location": [32.616897, 35.308415],
    "city": "עפולה"
  },
  {
    "name": "האילנות",
    "address": "רחבת אילן",
    "location": [32.070023, 34.846622],
    "city": "גבעת שמואל"
  },
  {
    "name": "חורשת יובל",
    "address": "בן גוריון 19",
    "location": [32.078928, 34.847531],
    "city": "גבעת שמואל"
  },
  {
    "name": "אנגל",
    "address": "אנגל 39",
    "location": [32.197172, 34.896567],
    "city": "כפר סבא"
  },
  {
    "name": "פארק רמון",
    "address": "מנחם בגין 7",
    "location": [32.073804, 34.853716],
    "city": "גבעת שמואל"
  },
  {
    "name": "אריה",
    "address": "ז'בוטינסקי",
    "location": [32.83861898786341, 35.066813526288776],
    "city": "קרית ים"
  },
  {
    "name": "חוף הים",
    "address": "שדרות פנחס ספיר",
    "location": [32.84513783416693, 35.059801991560306],
    "city": "קרית ים"
  },
  {
    "name": "סביוני ים",
    "address": "שדרות ארזים",
    "location": [32.858211906195926, 35.08154877116378],
    "city": "קרית ים"
  },
  {
    "name": "פארק תבור",
    "address": "תבור",
    "location": [32.85475374274006, 35.081740230076804],
    "city": "קרית ים"
  },
  {
    "name": "פסגות ים",
    "address": "ציפורן",
    "location": [32.84705589644379, 35.077460488266446],
    "city": "קרית ים"
  },
  {
    "name": "ברקת",
    "address": "ברקת",
    "location": [31.921178881067004, 34.809765432126945],
    "city": "נס ציונה"
  },
  {
    "name": "גן נווה",
    "address": "יציאת אירופה",
    "location": [31.92793816642775, 34.807700736195585],
    "city": "נס ציונה"
  },
  {
    "name": "גרנד וייל",
    "address": "הטייסים",
    "location": [31.932542231430315, 34.79524915904469],
    "city": "נס ציונה"
  },
  {
    "name": "הגיא",
    "address": "הגיא",
    "location": [31.92582937351421, 34.813058540233705],
    "city": "נס ציונה"
  },
  {
    "name": "וואלי",
    "address": "עונות השנה",
    "location": [31.911865859226356, 34.78943860602725],
    "city": "נס ציונה"
  },
  {
    "name": "טוסקנה",
    "address": "הדס",
    "location": [31.940329539515382, 34.794044820123545],
    "city": "נס ציונה"
  },
  {
    "name": "כ\"ט בנובמבר",
    "address": "המאה ואחד / גבעות הכורכר",
    "location": [31.937285123133087, 34.78825227031562],
    "city": "נס ציונה"
  },
  {
    "name": "פארק ספורט",
    "address": "הנשיא 5",
    "location": [32.082658, 34.849333],
    "city": "גבעת שמואל"
  },
  {
    "name": "מליבו",
    "address": "לנדאו / מנחם בגין",
    "location": [31.924035650009476, 34.78328690851795],
    "city": "נס ציונה"
  },
  {
    "name": "ספורטק",
    "address": "וייצמן",
    "location": [31.93384396241117, 34.801228426384924],
    "city": "נס ציונה"
  },
  {
    "name": "ברקן",
    "address": "ברקן / הסחלב",
    "location": [32.26705882723652, 34.8815030830287],
    "city": "אבן יהודה"
  },
  {
    "name": "בני ברית",
    "address": "בני ברית 8",
    "location": [32.154459596940406, 34.89032216142984],
    "city": "הוד השרון"
  },
  {
    "name": "גולדה מאיר",
    "address": "גולדה מאיר / סוקולוב",
    "location": [32.168342309763375, 34.90065875196745],
    "city": "הוד השרון"
  },
  {
    "name": "גולן",
    "address": "הגולן",
    "location": [32.15903694682641, 34.92324413861117],
    "city": "הוד השרון"
  },
  {
    "name": "האוטהקר",
    "address": "ישורון 2",
    "location": [32.15647460419286, 34.892603337989755],
    "city": "הוד השרון"
  },
  {
    "name": "האם",
    "address": "בן גוריון",
    "location": [32.159036690074785, 34.88874602431161],
    "city": "הוד השרון"
  },
  {
    "name": "סימטת אבן",
    "address": "סימטת אבן",
    "location": [32.152203052877404, 34.887345086348255],
    "city": "הוד השרון"
  },
  {
    "name": "פארק ארבע העונות",
    "address": "האגודה",
    "location": [32.14517496925049, 34.88270107548443],
    "city": "הוד השרון"
  },
  {
    "name": "פארק ארכיאולוגי",
    "address": "ששת הימים",
    "location": [32.15707528963652, 34.920097330297],
    "city": "הוד השרון"
  },
  {
    "name": "פארק הכבשים",
    "address": "הטווס",
    "location": [32.142859829433135, 34.89397548955093],
    "city": "הוד השרון"
  },
  {
    "name": "פארק עתידים",
    "address": "שדרות הנשיאים",
    "location": [32.163292787128455, 34.908449998560464],
    "city": "הוד השרון"
  },
  {
    "name": "אברהם",
    "address": "משה שרת 30",
    "location": [32.086496, 34.818725],
    "city": "רמת גן"
  },
  {
    "name": "ביאליק",
    "address": "ביאליק 99",
    "location": [32.08680737113466, 34.806774230606166],
    "city": "רמת גן"
  },
  {
    "name": "בראשית",
    "address": "דב פרידמן 19",
    "location": [32.080961, 34.803234],
    "city": "רמת גן"
  },
  {
    "name": "האקליפטוס",
    "address": "יהלום 1",
    "location": [32.043491, 34.831445],
    "city": "רמת גן"
  },
  {
    "name": "הבילויים",
    "address": "הבילויים 39",
    "location": [32.06054, 34.826254],
    "city": "רמת גן"
  },
  {
    "name": "החרוזים",
    "address": "חרוזים 12",
    "location": [32.09108, 34.803822],
    "city": "רמת גן"
  },
  {
    "name": "המלך דוד",
    "address": "שד' הילד 8",
    "location": [32.085859, 34.813509],
    "city": "רמת גן"
  },
  {
    "name": "הפודים",
    "address": "הפודים 21",
    "location": [32.092044, 34.818603],
    "city": "רמת גן"
  },
  {
    "name": "הר הארנבות",
    "address": "יבנה 9",
    "location": [32.081564, 34.823988],
    "city": "רמת גן"
  },
  {
    "name": "הר הבנים",
    "address": "מעלה הבנים",
    "location": [32.076207, 34.821446],
    "city": "רמת גן"
  },
  {
    "name": "התותחן",
    "address": "העמל 5",
    "location": [32.093276, 34.818543],
    "city": "רמת גן"
  },
  {
    "name": "ואדי כופר",
    "address": "עולי הגרדום פינת התפוצות",
    "location": [32.064991, 34.835945],
    "city": "רמת גן"
  },
  {
    "name": "חורשת אדיס דה פיליפ",
    "address": "המאה ואחד 28",
    "location": [32.056069, 34.818992],
    "city": "רמת גן"
  },
  {
    "name": "חורשת האורנים",
    "address": "יצחק רבין 8",
    "location": [32.06049, 34.821021],
    "city": "רמת גן"
  },
  {
    "name": "יהודה",
    "address": "לאן 16",
    "location": [32.081777, 34.808447],
    "city": "רמת גן"
  },
  {
    "name": "עוזיאל",
    "address": "בין נידוני קהיר ועוזיאל",
    "location": [32.06753, 34.821297],
    "city": "רמת גן"
  },
  {
    "name": "עמירם",
    "address": "הגת 8",
    "location": [32.084807, 34.820611],
    "city": "רמת גן"
  },
  {
    "name": "פארק מרום נווה",
    "address": "חיים לנדאו 6",
    "location": [32.071296, 34.828795],
    "city": "רמת גן"
  },
  {
    "name": "צדוק",
    "address": "אלרואי 41",
    "location": [32.071652, 34.821749],
    "city": "רמת גן"
  },
  {
    "name": "קורין",
    "address": "אבא הלל 66",
    "location": [32.09006, 34.810541],
    "city": "רמת גן"
  },
  {
    "name": "קרית קריניצי",
    "address": "ברוש 8",
    "location": [32.060851, 34.847332],
    "city": "רמת גן"
  },
  {
    "name": "שאול",
    "address": "מעלה הצופים 9",
    "location": [32.082476, 34.811684],
    "city": "רמת גן"
  },
  {
    "name": "תהילה",
    "address": "אצ\"ל 9",
    "location": [32.06498, 34.831082],
    "city": "רמת גן"
  },
  {
    "name": "תל אביב",
    "address": "רוקח 100",
    "location": [32.095354, 34.811722],
    "city": "רמת גן"
  },
  {
    "name": "אוקלהומה סיטי",
    "address": "רמז 17",
    "location": [32.037915, 34.885815],
    "city": "יהוד-מונוסון"
  },
  {
    "name": "מונוסון",
    "address": "פנינים 6",
    "location": [32.030292, 34.873274],
    "city": "יהוד-מונוסון"
  },
  {
    "name": "סביונים",
    "address": "משה דיין 18",
    "location": [32.032169, 34.876766],
    "city": "יהוד-מונוסון"
  },
  {
    "name": "ארנונה",
    "address": "קורא הדורות 33",
    "location": [31.748495, 35.222098],
    "city": "ירושלים"
  },
  {
    "name": "גילה",
    "address": "המרגלית / הסנונית",
    "location": [31.730129, 35.185033],
    "city": "ירושלים"
  },
  {
    "name": "הגבעה הצרפתית",
    "address": "בר כוכבא / החי\"ל",
    "location": [31.805732, 35.239948],
    "city": "ירושלים"
  },
  {
    "name": "העצמאות",
    "address": "הרב אבידע 7",
    "location": [31.777525, 35.217287],
    "city": "ירושלים"
  },
  {
    "name": "השבשבות",
    "address": "יהודה קרני",
    "location": [31.810344, 35.19721],
    "city": "ירושלים"
  },
  {
    "name": "סאקר",
    "address": "שדרות בן צבי 1",
    "location": [31.780618, 35.207657],
    "city": "ירושלים"
  },
  {
    "name": "סוקולוב",
    "address": "סוקולוב 12",
    "location": [31.772236, 35.218984],
    "city": "ירושלים"
  },
  {
    "name": "סן סימון",
    "address": "מעלה זאב 9",
    "location": [31.761609, 35.206336],
    "city": "ירושלים"
  },
  {
    "name": "פארק אמת המים",
    "address": "אלקחי",
    "location": [31.752138, 35.234261],
    "city": "ירושלים"
  },
  {
    "name": "פארק גוננים",
    "address": "נהוראי",
    "location": [31.755208, 35.208839],
    "city": "ירושלים"
  },
  {
    "name": "פארק דניה (פישמן)",
    "address": "גולומב",
    "location": [31.761917, 35.17728],
    "city": "ירושלים"
  },
  {
    "name": "פארק מקסיקו",
    "address": "מקסיקו",
    "location": [31.756062, 35.167844],
    "city": "ירושלים"
  },
  {
    "name": "פארק שמואל תמיר",
    "address": "שמואל תמיר כצנלסון",
    "location": [31.82042, 35.236191],
    "city": "ירושלים"
  },
  {
    "name": "פסגת זאב מזרח",
    "address": "חנה בבלי",
    "location": [31.822204, 35.256017],
    "city": "ירושלים"
  },
  {
    "name": "רמות",
    "address": "זרחי",
    "location": [31.813897, 35.191938],
    "city": "ירושלים"
  },
  {
    "name": "אהרון",
    "address": "שינקין 41",
    "location": [32.075745871378764, 34.81337669942492],
    "city": "גבעתיים"
  },
  {
    "name": "אנצו סירני",
    "address": "אנצו סירני 2",
    "location": [32.07062421790979, 34.80237094958209],
    "city": "גבעתיים"
  },
  {
    "name": "הבנים",
    "address": "הל\"ה 20",
    "location": [32.073579, 34.804064],
    "city": "גבעתיים"
  },
  {
    "name": "הזיכרון",
    "address": "גורדון 36",
    "location": [32.076610687305546, 34.81052023694119],
    "city": "גבעתיים"
  },
  {
    "name": "המכתש",
    "address": "השניים 6",
    "location": [32.07865693689919, 34.81073524287457],
    "city": "גבעתיים"
  },
  {
    "name": "העלייה השנייה",
    "address": "גולומוב 33",
    "location": [32.069692, 34.815149],
    "city": "גבעתיים"
  },
  {
    "name": "ויקטור (צור)",
    "address": "סמטת צור",
    "location": [32.07744484435886, 34.80516406922649],
    "city": "גבעתיים"
  },
  {
    "name": "חיל האוויר",
    "address": "מצולות ים",
    "location": [32.06360061588246, 34.807096644613864],
    "city": "גבעתיים"
  },
  {
    "name": "ילדי הגנים",
    "address": "משמר הירדן 16-14",
    "location": [32.06157273801761, 34.81386671466906],
    "city": "גבעתיים"
  },
  {
    "name": "כורזין",
    "address": "כורזין / טבנקין",
    "location": [32.059525713514766, 34.816683934313566],
    "city": "גבעתיים"
  },
  {
    "name": "מרים",
    "address": "שינקין 79",
    "location": [32.074999005921235, 34.81786976559094],
    "city": "גבעתיים"
  },
  {
    "name": "סולד",
    "address": "אילת 8",
    "location": [32.068804440354604, 34.806206960627314],
    "city": "גבעתיים"
  },
  {
    "name": "פארק גבעתיים",
    "address": "יצחק רבין 53",
    "location": [32.066698, 34.811341],
    "city": "גבעתיים"
  },
  {
    "name": "פטאי",
    "address": "פטאי 7",
    "location": [32.077294, 34.803114],
    "city": "גבעתיים"
  },
  {
    "name": "קורצ'אק",
    "address": "שדה בוקר 6",
    "location": [32.069514015434166, 34.80980374379266],
    "city": "גבעתיים"
  },
  {
    "name": "בית סמואל",
    "address": "רחבת חת\"ם סופר",
    "location": [31.255402, 34.768571],
    "city": "באר שבע"
  },
  {
    "name": "הפיל",
    "address": "יהודה הלוי (גן שני אליהו)",
    "location": [31.26751, 34.790267],
    "city": "באר שבע"
  },
  {
    "name": "הראשונים",
    "address": "שדרות יצחק רגר / מונטיפיורי",
    "location": [31.249078, 34.797668],
    "city": "באר שבע"
  },
  {
    "name": "טיילת הרכבת",
    "address": "שדרות צה\"ל / שדרות הערים התאומות",
    "location": [31.28767720320486, 34.79651425914964],
    "city": "באר שבע"
  },
  {
    "name": "כיכר קפלן",
    "address": "כיכר אליעזר קפלן",
    "location": [31.248690769386766, 34.79050003921157],
    "city": "באר שבע"
  },
  {
    "name": "מתחם כיוונים",
    "address": "קלישר 7",
    "location": [31.25604539633118, 34.81186454967073],
    "city": "באר שבע"
  },
  {
    "name": "מתנ\"ס מרגליות",
    "address": "ההגנה 10",
    "location": [31.23778952089812, 34.78540596623892],
    "city": "באר שבע"
  },
  {
    "name": "סיאטל",
    "address": "יצחק רגר 132",
    "location": [31.266585902750826, 34.79836691831213],
    "city": "באר שבע"
  },
  {
    "name": "פארק ה' (פארק יעלים)",
    "address": "בורלא / ש\"י עגנון",
    "location": [31.25158737081327, 34.7768753707302],
    "city": "באר שבע"
  },
  {
    "name": "פארק הסופרים",
    "address": "אינשטיין",
    "location": [31.255908517871394, 34.78883198280657],
    "city": "באר שבע"
  },
  {
    "name": "פארק הצנחנים",
    "address": "חנוך גיבתון 2",
    "location": [31.223169244815697, 34.778087454075425],
    "city": "באר שבע"
  },
  {
    "name": "המקובלים",
    "address": "חורשת המקובלים",
    "location": [32.153764, 34.838901],
    "city": "הרצליה"
  },
  {
    "name": "שבטה",
    "address": "שבטה",
    "location": [31.245382, 34.770763],
    "city": "באר שבע"
  },
  {
    "name": "שבטה",
    "address": "רחבת אופירה / משעול מוצא",
    "location": [31.245412711954764, 34.77075217376747],
    "city": "באר שבע"
  },
  {
    "name": "שומרון",
    "address": "שומרון 57",
    "location": [31.247622, 34.765855],
    "city": "באר שבע"
  },
  {
    "name": "הדקל",
    "address": "הגליל 12",
    "location": [32.174634, 34.917314],
    "city": "כפר סבא"
  },
  {
    "name": "התשבי",
    "address": "התשבי",
    "location": [32.764426, 35.051412],
    "city": "נשר"
  },
  {
    "name": "רוסלן",
    "address": "האורן, ששת הימים והחצב",
    "location": [32.770456, 35.041435],
    "city": "נשר"
  },
  {
    "name": "דוד בן גוריון",
    "address": "דוד בן גוריון 142",
    "location": [32.140995, 34.833882],
    "city": "רמת השרון"
  },
  {
    "name": "הגפן 34",
    "address": "הגפן 34",
    "location": [32.129688, 34.845803],
    "city": "רמת השרון"
  },
  {
    "name": "הגפן 4",
    "address": "הגפן 4",
    "location": [32.131712, 34.842496],
    "city": "רמת השרון"
  },
  {
    "name": "הטבק",
    "address": "הטבק 13",
    "location": [32.149594, 34.841992],
    "city": "רמת השרון"
  },
  {
    "name": "המעפילים",
    "address": "המעפילים 12",
    "location": [32.151449, 34.837976],
    "city": "רמת השרון"
  },
  {
    "name": "הנביאים",
    "address": "הנביאים 43",
    "location": [32.129458, 34.855855],
    "city": "רמת השרון"
  },
  {
    "name": "העבודה",
    "address": "העבודה 15",
    "location": [32.139121, 34.838839],
    "city": "רמת השרון"
  },
  {
    "name": "השילוח",
    "address": "השילוח 12",
    "location": [32.146159, 34.847118],
    "city": "רמת השרון"
  },
  {
    "name": "חורשת מוריה",
    "address": "מוריה 20",
    "location": [32.14362, 34.836472],
    "city": "רמת השרון"
  },
  {
    "name": "פארק הנצח",
    "address": "הנצח 3",
    "location": [32.139007, 34.845388],
    "city": "רמת השרון"
  },
  {
    "name": "פארק נווה רעים",
    "address": "יגאל אלון 7",
    "location": [32.129997, 34.861647],
    "city": "רמת השרון"
  },
  {
    "name": "גבעת השבשבת",
    "address": "מנדלי מוכר ספרים 17",
    "location": [32.78554517948479, 35.01332129308476],
    "city": "חיפה והקריות"
  },
  {
    "name": "ורדיה",
    "address": "ורדיה 12",
    "location": [32.794659, 34.996485],
    "city": "חיפה והקריות"
  },
  {
    "name": "פארק קאודרס",
    "address": "קאודרס 5",
    "location": [32.82103163993615, 34.97094265427047],
    "city": "חיפה והקריות"
  },
  {
    "name": "קריית חיים",
    "address": "הנוטר 56",
    "location": [32.82345400457085, 35.069923855765154],
    "city": "חיפה והקריות"
  },
  {
    "name": "רוממה",
    "address": "אורן 31",
    "location": [32.784865, 34.997458],
    "city": "חיפה והקריות"
  },
  {
    "name": "רמת אלמוגי",
    "address": "זלמן שניאור 26",
    "location": [32.778556, 35.005142],
    "city": "חיפה והקריות"
  },
  {
    "name": "בן צבי",
    "address": "יצחק בן צבי",
    "location": [32.072692, 34.886653],
    "city": "פתח תקוה"
  },
  {
    "name": "הדר גנים",
    "address": "השופר",
    "location": [32.079864, 34.905604],
    "city": "פתח תקוה"
  },
  {
    "name": "הדר המושבות",
    "address": "גיסין - חורשת האקליפטוסים",
    "location": [32.099332, 34.87183],
    "city": "פתח תקוה"
  },
  {
    "name": "הנשיא",
    "address": "חיים כהן / בן יהודה",
    "location": [32.080786, 34.882641],
    "city": "פתח תקוה"
  },
  {
    "name": "יונה בוגלה",
    "address": "אסף שמחוני",
    "location": [32.074026, 34.892624],
    "city": "פתח תקוה"
  },
  {
    "name": "כפר גנים",
    "address": "משה נקאש",
    "location": [32.07073, 34.860998],
    "city": "פתח תקוה"
  },
  {
    "name": "נוה עוז",
    "address": "אלכסנדר זייד",
    "location": [32.076386, 34.863944],
    "city": "פתח תקוה"
  },
  {
    "name": "נחום הלר",
    "address": "אחד העם",
    "location": [32.084695, 34.893401],
    "city": "פתח תקוה"
  },
  {
    "name": "פארק יד לבנים",
    "address": "משה שרת",
    "location": [32.087707, 34.874023],
    "city": "פתח תקוה"
  },
  {
    "name": "קק\"ל",
    "address": "קק\"ל 37",
    "location": [32.080322, 34.887573],
    "city": "פתח תקוה"
  },
  {
    "name": "קרית אלון",
    "address": "דוד רמז - חורשת ששת הימים",
    "location": [32.088741, 34.905034],
    "city": "פתח תקוה"
  },
  {
    "name": "הגפן",
    "address": "האורן פינת ההדס",
    "location": [31.308964, 34.612804],
    "city": "אופקים"
  },
  {
    "name": "פארק הידידות",
    "address": "האורן 10",
    "location": [31.307440715093946, 34.61332920229788],
    "city": "אופקים"
  },
  {
    "name": "שער הדרום",
    "address": "אדוריים / המעפיל",
    "location": [31.602708, 34.761326],
    "city": "קרית גת"
  },
  {
    "name": "בית הלל",
    "address": "בית הלל",
    "location": [32.181435, 34.880088],
    "city": "רעננה"
  },
  {
    "name": "גנדל",
    "address": "גולומב 1",
    "location": [32.182452, 34.875428],
    "city": "רעננה"
  },
  {
    "name": "היער הקטן",
    "address": "ארלוזורוב פינת פרדס משותף",
    "location": [32.173022, 34.877032],
    "city": "רעננה"
  },
  {
    "name": "הנשיאים",
    "address": "הנשיאים פינת וייצמן",
    "location": [32.192165, 34.863367],
    "city": "רעננה"
  },
  {
    "name": "הסייפן",
    "address": "הסייפן פינת וייצמן",
    "location": [32.191966, 34.848511],
    "city": "רעננה"
  },
  {
    "name": "הפעמונים",
    "address": "הפעמונים",
    "location": [32.181662, 34.856856],
    "city": "רעננה"
  },
  {
    "name": "הפרחים",
    "address": "הפרחים סמוך לביה\"ס תל\"י",
    "location": [32.181102, 34.853979],
    "city": "רעננה"
  },
  {
    "name": "יערה",
    "address": "יערה 6",
    "location": [32.184324, 34.889081],
    "city": "רעננה"
  },
  {
    "name": "קרית גנים",
    "address": "הערבה 10",
    "location": [32.188953, 34.855414],
    "city": "רעננה"
  },
  {
    "name": "בריל",
    "address": "אבא אחמיאיר",
    "location": [31.937734, 34.874306],
    "city": "רמלה"
  },
  {
    "name": "ההגנה",
    "address": "ההגנה",
    "location": [31.932395, 34.870188],
    "city": "רמלה"
  },
  {
    "name": "מוצקין",
    "address": "מוצקין",
    "location": [31.935337, 34.869014],
    "city": "רמלה"
  },
  {
    "name": "פארק גולדה",
    "address": "קרן היסוד",
    "location": [31.927783, 34.854975],
    "city": "רמלה"
  },
  {
    "name": "פארק עופר",
    "address": "א.ס. לוי",
    "location": [31.92395, 34.857228],
    "city": "רמלה"
  },
  {
    "name": "עמק השושנים",
    "address": "עמק השושנים / המעפילים",
    "location": [31.92824744303016, 34.789215695390375],
    "city": "נס ציונה"
  },
  {
    "name": "רחבת חיל",
    "address": "רחבת החיל",
    "location": [31.26137429542028, 34.77589502876497],
    "city": "באר שבע"
  },
  {
    "name": "בית לנדאו",
    "address": "אורח חיים 4",
    "location": [32.763959, 35.04837],
    "city": "נשר"
  },
  {
    "name": "חורשת האירועים",
    "address": "המטעים",
    "location": [32.249158848498766, 34.91890670051777],
    "city": "תל מונד"
  },
  {
    "name": "גבעת האהבה",
    "address": "פנחס בן דוד",
    "location": [31.880179, 34.809901],
    "city": "רחובות"
  },
  {
    "name": "הבנים - נווה יהודה",
    "address": "אהרונוביץ 15",
    "location": [31.901307, 34.801454],
    "city": "רחובות"
  },
  {
    "name": "היובל",
    "address": "דרך ירושלים",
    "location": [31.88851, 34.825458],
    "city": "רחובות"
  },
  {
    "name": "חורשת ותיקים",
    "address": "קנדלר פינת נח קרומר",
    "location": [31.892678, 34.800865],
    "city": "רחובות"
  },
  {
    "name": "פארק רחובות המדע",
    "address": "דניאל כהנמן",
    "location": [31.904857, 34.822312],
    "city": "רחובות"
  },
  {
    "name": "רחובות ההולנדית",
    "address": "הר הצופים",
    "location": [31.896639, 34.781545],
    "city": "רחובות"
  },
  {
    "name": "אגם החורף",
    "address": "יצחק מודעי 7",
    "location": [32.293107, 34.844352],
    "city": "נתניה"
  },
  {
    "name": "אמנון ותמר",
    "address": "אדמונית",
    "location": [32.273282, 34.849796],
    "city": "נתניה"
  },
  {
    "name": "גורדון",
    "address": "גורדון 60",
    "location": [32.336897, 34.858116],
    "city": "נתניה"
  },
  {
    "name": "הדקל",
    "address": "הדקל",
    "location": [32.301676, 34.875174],
    "city": "נתניה"
  },
  {
    "name": "נאות גולדה",
    "address": "גולדה מאיר",
    "location": [32.275961, 34.853711],
    "city": "נתניה"
  },
  {
    "name": "עיר ימים",
    "address": "יוסי בנאי",
    "location": [32.277405, 34.843592],
    "city": "נתניה"
  },
  {
    "name": "רותם",
    "address": "חרצית",
    "location": [32.286154, 34.848745],
    "city": "נתניה"
  },
  {
    "name": "פארק ההדרים",
    "address": "הנוטע",
    "location": [32.25224253306042, 34.91070655864603],
    "city": "תל מונד"
  },
  {
    "name": "שרה אהרונסון",
    "address": "סמינלסקי פינת בן יהודה",
    "location": [32.324284, 34.852528],
    "city": "נתניה"
  },
  {
    "name": "בן גוריון",
    "address": "יוסף גרשון - שכונת בן גוריון",
    "location": [32.922145, 35.095927],
    "city": "עכו"
  },
  {
    "name": "אחוזת ראשונים",
    "address": "הנחשול 28-26",
    "location": [31.986809, 34.784106],
    "city": "ראשון לציון"
  },
  {
    "name": "אלתרמן",
    "address": "אלתרמן 1",
    "location": [31.974736180151087, 34.76932744729005],
    "city": "ראשון לציון"
  },
  {
    "name": "ארזים",
    "address": "סעדיה ויוסף בשארי 11",
    "location": [31.980586044956272, 34.80381646737434],
    "city": "ראשון לציון"
  },
  {
    "name": "דוד הלוי",
    "address": "חיים דוד הלוי 2",
    "location": [31.946049, 34.816827],
    "city": "ראשון לציון"
  },
  {
    "name": "הזיכרון",
    "address": "חסידי אומות העולם 1",
    "location": [31.976733555141166, 34.78308315656236],
    "city": "ראשון לציון"
  },
  {
    "name": "החלוצים",
    "address": "החלוצים 90",
    "location": [31.980518967062903, 34.75870007664229],
    "city": "ראשון לציון"
  },
  {
    "name": "הכימיה",
    "address": "מעגל השלום 15",
    "location": [31.969080450207233, 34.765107367025465],
    "city": "ראשון לציון"
  },
  {
    "name": "המוסיקה",
    "address": "דרובין 40",
    "location": [31.95572231344794, 34.798751365988025],
    "city": "ראשון לציון"
  },
  {
    "name": "המושבה",
    "address": "הכרמל 20",
    "location": [31.96210685491025, 34.8034711805312],
    "city": "ראשון לציון"
  },
  {
    "name": "חוף הים",
    "address": "טיילת צפונית",
    "location": [32.001047, 34.733379],
    "city": "ראשון לציון"
  },
  {
    "name": "חיל האוויר",
    "address": "חיל האוויר",
    "location": [31.997866180001818, 34.74227332384554],
    "city": "ראשון לציון"
  },
  {
    "name": "יונתן (טיילת שפד\"ן)",
    "address": "רחבעם זאבי",
    "location": [31.99270480003787, 34.74672205144005],
    "city": "ראשון לציון"
  },
  {
    "name": "מונדריאן",
    "address": "ה' באייר 33",
    "location": [31.982076083676716, 34.779790896863325],
    "city": "ראשון לציון"
  },
  {
    "name": "פארק אבי האסירים",
    "address": "אבי האסירים 6",
    "location": [31.954244, 34.803191],
    "city": "ראשון לציון"
  },
  {
    "name": "פארק ההסתדרות",
    "address": "ההסתדרות / גשר המוזיאון",
    "location": [31.966710892470374, 34.78379217780806],
    "city": "ראשון לציון"
  },
  {
    "name": "פארק היקפי 6",
    "address": "מדרום למלך הגשם 8",
    "location": [31.96769754420237, 34.76133844897166],
    "city": "ראשון לציון"
  },
  {
    "name": "פארק המעיין",
    "address": "בן גוריון 37",
    "location": [31.969567670951204, 34.79002891035378],
    "city": "ראשון לציון"
  },
  {
    "name": "פארק המצילתיים",
    "address": "המצילתיים 1",
    "location": [31.964498317431875, 34.77511985536267],
    "city": "ראשון לציון"
  },
  {
    "name": "פארק חולות צפון 1",
    "address": "מאחורי כפר חיטים 7",
    "location": [31.96243249567285, 34.78184436177192],
    "city": "ראשון לציון"
  },
  {
    "name": "פארק יונה בוגלה",
    "address": "יונה בוגלה 19",
    "location": [31.946353966993613, 34.82030076802593],
    "city": "ראשון לציון"
  },
  {
    "name": "פארק יוסף בורג",
    "address": "יוסף בורג 7",
    "location": [31.968884026905087, 34.819967873920405],
    "city": "ראשון לציון"
  },
  {
    "name": "פארק נאות השקמה",
    "address": "חיים בר-לב 1",
    "location": [31.97782019208207, 34.76418969180747],
    "city": "ראשון לציון"
  },
  {
    "name": "פארק תורה ועבודה",
    "address": "תורה ועבודה 1",
    "location": [31.98884995660604, 34.789548101637166],
    "city": "ראשון לציון"
  },
  {
    "name": "קרית ראשון",
    "address": "ההרדוף",
    "location": [31.972424, 34.785304],
    "city": "ראשון לציון"
  },
  {
    "name": "רביבים",
    "address": "גבעתי 39",
    "location": [31.963598603067616, 34.81741329686282],
    "city": "ראשון לציון"
  },
  {
    "name": "רפפורט",
    "address": "רפפורט 7",
    "location": [31.966960307160576, 34.82411435453566],
    "city": "ראשון לציון"
  },
  {
    "name": "שער המלך דרום",
    "address": "שער המלך 4",
    "location": [31.993827664227336, 34.74578981035452],
    "city": "ראשון לציון"
  },
  {
    "name": "אדירים",
    "address": "אדירים 24",
    "location": [32.122659, 34.84094],
    "city": "תל אביב-יפו"
  },
  {
    "name": "אלכסנדר 19",
    "address": "אלכסנדר פן 19",
    "location": [32.123812, 34.811428],
    "city": "תל אביב-יפו"
  },
  {
    "name": "אלפרד ביר",
    "address": "אליהו חכים 7",
    "location": [32.126315, 34.801112],
    "city": "תל אביב-יפו"
  },
  {
    "name": "אשכנזי",
    "address": "אשכנזי 33",
    "location": [32.111194, 34.830775],
    "city": "תל אביב-יפו"
  },
  {
    "name": "בילטמור",
    "address": "בילטמור 12",
    "location": [32.088699, 34.787222],
    "city": "תל אביב-יפו"
  },
  {
    "name": "בית הבילויים",
    "address": "מרדכי בנטוב 3",
    "location": [32.042321, 34.768478],
    "city": "תל אביב-יפו"
  },
  {
    "name": "בית יד לבנים",
    "address": "פנקס 63",
    "location": [32.091992, 34.793184],
    "city": "תל אביב-יפו"
  },
  {
    "name": "בני אפרים / שטרית",
    "address": "בני אפרים / בכור שלום שטרית",
    "location": [32.107899, 34.815656],
    "city": "תל אביב-יפו"
  },
  {
    "name": "בני דן",
    "address": "בני דן 37",
    "location": [32.096435, 34.792057],
    "city": "תל אביב-יפו"
  },
  {
    "name": "ברנט",
    "address": "ברנט 2",
    "location": [32.061362, 34.761821],
    "city": "תל אביב-יפו"
  },
  {
    "name": "גימפל",
    "address": "יחזקאל 3",
    "location": [32.093075, 34.77704],
    "city": "תל אביב-יפו"
  },
  {
    "name": "גשר בר יהודה",
    "address": "אבן גבירול 213",
    "location": [32.096529, 34.783693],
    "city": "תל אביב-יפו"
  },
  {
    "name": "דגלאס",
    "address": "תשרי 40",
    "location": [32.045013, 34.78963],
    "city": "תל אביב-יפו"
  },
  {
    "name": "דובנוב",
    "address": "דובנוב 24",
    "location": [32.078008, 34.784037],
    "city": "תל אביב-יפו"
  },
  {
    "name": "דרויאנוב",
    "address": "אליפלט 5",
    "location": [32.056831, 34.765308],
    "city": "תל אביב-יפו"
  },
  {
    "name": "דרזנר",
    "address": "יחיאל דב דרזנר 5",
    "location": [32.127332, 34.80494],
    "city": "תל אביב-יפו"
  },
  {
    "name": "הגולן",
    "address": "גולי אריתריאה 5",
    "location": [32.108697, 34.831959],
    "city": "תל אביב-יפו"
  },
  {
    "name": "ההשכלה",
    "address": "שדרות ההשכלה 18",
    "location": [32.067137, 34.796579],
    "city": "תל אביב-יפו"
  },
  {
    "name": "הכובשים",
    "address": "כרם התימנים 2",
    "location": [32.06906, 34.766103],
    "city": "תל אביב-יפו"
  },
  {
    "name": "הכובשים 78",
    "address": "הכובשים 78",
    "location": [32.066589, 34.76512],
    "city": "תל אביב-יפו"
  },
  {
    "name": "המייסדים",
    "address": "אורי צבי גרינברג 25",
    "location": [32.129447, 34.790933],
    "city": "תל אביב-יפו"
  },
  {
    "name": "העיר",
    "address": "הדסה 3",
    "location": [32.082869, 34.778673],
    "city": "תל אביב-יפו"
  },
  {
    "name": "העצמאות",
    "address": "הירקון 228",
    "location": [32.091111, 34.771657],
    "city": "תל אביב-יפו"
  },
  {
    "name": "הר ציון",
    "address": "שדרות הר ציון 107",
    "location": [32.050588, 34.774021],
    "city": "תל אביב-יפו"
  },
  {
    "name": "השרון",
    "address": "החשמל 8",
    "location": [32.061212, 34.775252],
    "city": "תל אביב-יפו"
  },
  {
    "name": "התיבונים",
    "address": "התיבונים 42",
    "location": [32.053555, 34.779948],
    "city": "תל אביב-יפו"
  },
  {
    "name": "וייץ",
    "address": "הרב גליקסברג / לאה גולדברג",
    "location": [32.118384, 34.822654],
    "city": "תל אביב-יפו"
  },
  {
    "name": "וילנסקי",
    "address": "משה וילנסקי 16",
    "location": [32.128033, 34.831951],
    "city": "תל אביב-יפו"
  },
  {
    "name": "וינר",
    "address": "מנדלשטם 11",
    "location": [32.090904, 34.776594],
    "city": "תל אביב-יפו"
  },
  {
    "name": "חורשת אבוקה",
    "address": "אבוקה 5",
    "location": [32.123837, 34.829363],
    "city": "תל אביב-יפו"
  },
  {
    "name": "חורשת אברהם בויאר",
    "address": "אברהם בויאר 5",
    "location": [32.124373, 34.7955],
    "city": "תל אביב-יפו"
  },
  {
    "name": "חורשת אלברט קיוסו",
    "address": "אלברט קיוסו 11",
    "location": [32.048925, 34.754964],
    "city": "תל אביב-יפו"
  },
  {
    "name": "חורשת בית אל",
    "address": "בית אל 30",
    "location": [32.117321, 34.841502],
    "city": "תל אביב-יפו"
  },
  {
    "name": "חורשת בני יהודה",
    "address": "תדהר 46",
    "location": [32.049973, 34.785978],
    "city": "תל אביב-יפו"
  },
  {
    "name": "חורשת הורודצקי",
    "address": "משה דיין 117",
    "location": [32.064665, 34.799272],
    "city": "תל אביב-יפו"
  },
  {
    "name": "חורשת נהרדעא",
    "address": "סוטין 22",
    "location": [32.082068, 34.786092],
    "city": "תל אביב-יפו"
  },
  {
    "name": "חורשת עולי הגרדום",
    "address": "עולי הגרדום 25",
    "location": [32.112415, 34.835661],
    "city": "תל אביב-יפו"
  },
  {
    "name": "חורשת פרנקפורט",
    "address": "קהילת ורשה 75",
    "location": [32.10844, 34.822802],
    "city": "תל אביב-יפו"
  },
  {
    "name": "חורשת רבנו ירוחם",
    "address": "רבנו ירוחם 7",
    "location": [32.048807, 34.760552],
    "city": "תל אביב-יפו"
  },
  {
    "name": "חורשת רומנו",
    "address": "רומנו 1",
    "location": [32.120913, 34.814658],
    "city": "תל אביב-יפו"
  },
  {
    "name": "חורשת רפידים",
    "address": "רפידים 22",
    "location": [32.112417, 34.811601],
    "city": "תל אביב-יפו"
  },
  {
    "name": "חורשת שטיינמן",
    "address": "אליעזר שטיינמן 11",
    "location": [32.098238, 34.800768],
    "city": "תל אביב-יפו"
  },
  {
    "name": "חיים מבורך",
    "address": "מגדל שרשן 14",
    "location": [32.117583, 34.812842],
    "city": "תל אביב-יפו"
  },
  {
    "name": "חניון שוק גבעת עליה",
    "address": "דוד וולפסון 48",
    "location": [32.057575, 34.774099],
    "city": "תל אביב-יפו"
  },
  {
    "name": "טאגור",
    "address": "טאגור 30",
    "location": [32.116988, 34.796556],
    "city": "תל אביב-יפו"
  },
  {
    "name": "טבריה",
    "address": "טבריה 1",
    "location": [32.076055, 34.770466],
    "city": "תל אביב-יפו"
  },
  {
    "name": "יגאל אלון פינת ערבי נחל",
    "address": "יגאל אלון 165",
    "location": [32.079322, 34.798512],
    "city": "תל אביב-יפו"
  },
  {
    "name": "כוכב הצפון",
    "address": "אבא קובנר 18",
    "location": [32.101574, 34.788007],
    "city": "תל אביב-יפו"
  },
  {
    "name": "כוכב הצפון",
    "address": "מאוריציו ויטלה 9",
    "location": [32.102243, 34.791842],
    "city": "תל אביב-יפו"
  },
  {
    "name": "כיכר המדינה - עקיבא אריה",
    "address": "ה' באייר / אריה עקיבא",
    "location": [32.087336, 34.790741],
    "city": "תל אביב-יפו"
  },
  {
    "name": "לבנדה",
    "address": "לבנדה / עין הקורא",
    "location": [32.057221, 34.782974],
    "city": "תל אביב-יפו"
  },
  {
    "name": "לה גווארדיה",
    "address": "לה גווארדיה 59",
    "location": [32.059196, 34.796185],
    "city": "תל אביב-יפו"
  },
  {
    "name": "מאיר",
    "address": "המלך ג'ורג' 35",
    "location": [32.0732, 34.77329],
    "city": "תל אביב-יפו"
  },
  {
    "name": "מוריץ דניאל",
    "address": "מוריץ דניאל 32",
    "location": [32.116445, 34.799027],
    "city": "תל אביב-יפו"
  },
  {
    "name": "מייזל זלמן",
    "address": "מייזל זלמן 1",
    "location": [32.031547, 34.74808],
    "city": "תל אביב-יפו"
  },
  {
    "name": "מנחם ארבר 14",
    "address": "מנחם ארבר 14",
    "location": [32.042288, 34.767046],
    "city": "תל אביב-יפו"
  },
  {
    "name": "מעפילי אגוז",
    "address": "מעפילי אגוז 73",
    "location": [32.054396, 34.808811],
    "city": "תל אביב-יפו"
  },
  {
    "name": "מרדכי מאיר",
    "address": "מרדכי מאיר 4",
    "location": [32.122553, 34.814472],
    "city": "תל אביב-יפו"
  },
  {
    "name": "מרק שגאל",
    "address": "מרק שגאל 1",
    "location": [32.118392, 34.787186],
    "city": "תל אביב-יפו"
  },
  {
    "name": "משה דיין",
    "address": "משה דיין 62",
    "location": [32.056695, 34.800465],
    "city": "תל אביב-יפו"
  },
  {
    "name": "סעדיה שושני",
    "address": "רמות נפתלי 13",
    "location": [32.115472, 34.836184],
    "city": "תל אביב-יפו"
  },
  {
    "name": "פארק אופטושו",
    "address": "רינגלבלום 20",
    "location": [32.04119, 34.781007],
    "city": "תל אביב-יפו"
  },
  {
    "name": "פארק החורשות",
    "address": "עופר כהן 16",
    "location": [32.046483, 34.772671],
    "city": "תל אביב-יפו"
  },
  {
    "name": "פארק וולפסון",
    "address": "השלום 120",
    "location": [32.05903, 34.805812],
    "city": "תל אביב-יפו"
  },
  {
    "name": "פארק מודעי",
    "address": "הפרסה 19",
    "location": [32.121251, 34.837561],
    "city": "תל אביב-יפו"
  },
  {
    "name": "פארק מנחם בגין",
    "address": "בירנית",
    "location": [32.041258, 34.804179],
    "city": "תל אביב-יפו"
  },
  {
    "name": "פארק צמרת",
    "address": "קריאל גרדוש",
    "location": [32.089435, 34.798046],
    "city": "תל אביב-יפו"
  },
  {
    "name": "פארק ראול וולנברג",
    "address": "הגולן 132",
    "location": [32.114586, 34.838671],
    "city": "תל אביב-יפו"
  },
  {
    "name": "פוליטי",
    "address": "הרב אשי 14",
    "location": [32.12062, 34.799532],
    "city": "תל אביב-יפו"
  },
  {
    "name": "פייבל",
    "address": "ליסין 25",
    "location": [32.084239, 34.793714],
    "city": "תל אביב-יפו"
  },
  {
    "name": "פיקוס 28",
    "address": "פיקוס 28",
    "location": [32.036621, 34.752103],
    "city": "תל אביב-יפו"
  },
  {
    "name": "קהילת קייב",
    "address": "קהילת קייב 1",
    "location": [32.114075, 34.818572],
    "city": "תל אביב-יפו"
  },
  {
    "name": "קהילת ריגה",
    "address": "קהילת ריגה / מבצע קדש",
    "location": [32.112819, 34.820662],
    "city": "תל אביב-יפו"
  },
  {
    "name": "קוממיות",
    "address": "קוממיות 26",
    "location": [32.119244, 34.805415],
    "city": "תל אביב-יפו"
  },
  {
    "name": "קרית ספר",
    "address": "יהודה הלוי 84",
    "location": [32.068389, 34.780911],
    "city": "תל אביב-יפו"
  },
  {
    "name": "קרן קיימת - משמר הגבול",
    "address": "משמר הגבול 3",
    "location": [32.121882, 34.803696],
    "city": "תל אביב-יפו"
  },
  {
    "name": "ראש הכפר",
    "address": "מנחם וטוביה מדמון 1",
    "location": [32.050266, 34.804216],
    "city": "תל אביב-יפו"
  },
  {
    "name": "ראש ציפור",
    "address": "קוסובסקי - מפגש הנחלים הירקון ואיילון",
    "location": [32.099483, 34.802597],
    "city": "תל אביב-יפו"
  },
  {
    "name": "רדינג",
    "address": "רדינג 39",
    "location": [32.108497, 34.794176],
    "city": "תל אביב-יפו"
  },
  {
    "name": "ריקליס",
    "address": "פליטי הספר 19",
    "location": [32.069065, 34.801455],
    "city": "תל אביב-יפו"
  },
  {
    "name": "רפידים-צפון",
    "address": "תל ברוך 13",
    "location": [32.118432, 34.812015],
    "city": "תל אביב-יפו"
  },
  {
    "name": "שפע טל",
    "address": "שפע טל 2",
    "location": [32.072192, 34.790539],
    "city": "תל אביב-יפו"
  },
  {
    "name": "תוצרת הארץ",
    "address": "תוצרת הארץ 11",
    "location": [32.073155, 34.797922],
    "city": "תל אביב-יפו"
  },
  {
    "name": "פארק הדקלים",
    "address": "הדקל",
    "location": [32.25978383090893, 34.92264754855474],
    "city": "תל מונד"
  },
  {
    "name": "שבטי ישראל",
    "address": "שבטי ישראל 6",
    "location": [32.30159, 34.87091],
    "city": "נתניה"
  },
  {
    "name": "אחוזות הנשיא",
    "address": "כרמל",
    "location": [31.907422, 34.821662],
    "city": "רחובות"
  },
  {
    "name": "אילן לובודה",
    "address": "רמה",
    "location": [32.06228178030777, 34.86082941177506],
    "city": "קרית אונו"
  },
  {
    "name": "פארק צה\"ל",
    "address": "צה\"ל",
    "location": [32.051990927910154, 34.86013550974424],
    "city": "קרית אונו"
  },
  {
    "name": "פארק רייספלד",
    "address": "המייסדים",
    "location": [32.05581165594474, 34.8560458054709],
    "city": "קרית אונו"
  },
  {
    "name": "פארק שטרן",
    "address": "יאיר שטרן",
    "location": [32.05215225579733, 34.86607735930354],
    "city": "קרית אונו"
  },
  {
    "name": "פארק ורשה",
    "address": "אמיל זולא",
    "location": [32.06606430061725, 34.85736010506665],
    "city": "קרית אונו"
  },
  {
    "name": "חורשת הפסגה",
    "address": "יצחק רבין",
    "location": [32.06549186190477, 34.86437673724901],
    "city": "קרית אונו"
  },
  {
    "name": "חורשת קובו",
    "address": "המעגל 16",
    "location": [32.04842799245899, 34.867162256261764],
    "city": "קרית אונו"
  },
  {
    "name": "קק\"ל",
    "address": "שדרות קק\"ל",
    "location": [32.06468345733502, 34.84957172083122],
    "city": "קרית אונו"
  },
  {
    "name": "החבל",
    "address": "החבל",
    "location": [32.00444, 34.943483],
    "city": "שוהם"
  },
  {
    "name": "העמק",
    "address": "האודם 6",
    "location": [31.994133, 34.941406],
    "city": "שוהם"
  },
  {
    "name": "סחלבים",
    "address": "הדקל",
    "location": [32.004731, 34.951222],
    "city": "שוהם"
  },
  {
    "name": "קדם",
    "address": "קדם 39",
    "location": [31.996195, 34.950504],
    "city": "שוהם"
  },
  {
    "name": "דניאל",
    "address": "דניאל",
    "location": [32.018069, 34.750191],
    "city": "בת ים"
  },
  {
    "name": "הלנה ראפ ונספי הטרור",
    "address": "מוהליבר 16",
    "location": [32.006987, 34.751344],
    "city": "בת ים"
  },
  {
    "name": "הנ\"ד",
    "address": "דקר 2",
    "location": [32.018905, 34.743206],
    "city": "בת ים"
  },
  {
    "name": "חורשת הנופלים",
    "address": "הקוממיות",
    "location": [32.003306, 34.750303],
    "city": "בת ים"
  },
  {
    "name": "ליבורנו",
    "address": "ליבורנו פינת כובשי החרמון",
    "location": [32.010123, 34.759665],
    "city": "בת ים"
  },
  {
    "name": "משה דיין",
    "address": "סטרומה",
    "location": [32.020849265586435, 34.75672936579537],
    "city": "בת ים"
  },
  {
    "name": "האורגים",
    "address": "האורגים פינת צילה",
    "location": [32.008553, 34.744349],
    "city": "בת ים"
  },
  {
    "name": "הי\"א מצד כ\"ט בנובמבר",
    "address": "כ\"ט בנובמבר",
    "location": [32.009482, 34.756322],
    "city": "בת ים"
  },
  {
    "name": "הי\"א מצד מוכרי הסיגריות",
    "address": "מוכרי הסיגריות 6",
    "location": [32.01266, 34.755793],
    "city": "בת ים"
  },
  {
    "name": "שרת",
    "address": "משה שרת 4",
    "location": [32.016369, 34.752103],
    "city": "בת ים"
  }
]
